{
  "providers": [
    {
      "id": "PROV-001",
      "name": "Sample Medical Centre A",
      "type": "Hospital",
      "address": "123, Example Street, City Area",
      "city": "Metro City",
      "state": "Central Region",
      "phone": "+60X-XXXX XXXX",
      "email": "contact@example-hospital-a.demo",
      "specialties": ["Cardiology", "Oncology", "Orthopedics", "Neurology"],
      "rating": 4.8,
      "coordinates": { "lat": 3.0672, "lng": 101.6054 }
    },
    {
      "id": "PROV-002",
      "name": "Sample Hospital B",
      "type": "Hospital",
      "address": "456, Demo Avenue",
      "city": "Metro City",
      "state": "Central Region",
      "phone": "+60X-XXXX XXXX",
      "email": "contact@example-hospital-b.demo",
      "specialties": ["Cardiology", "Gastroenterology", "Women's Health", "Pediatrics"],
      "rating": 4.7,
      "coordinates": { "lat": 3.1615, "lng": 101.7383 }
    },
    {
      "id": "PROV-003",
      "name": "Sample Hospital C",
      "type": "Hospital",
      "address": "789, Sample Road",
      "city": "Metro City",
      "state": "Central Region",
      "phone": "+60X-XXXX XXXX",
      "email": "contact@example-hospital-c.demo",
      "specialties": ["General Surgery", "ENT", "Dermatology", "Urology"],
      "rating": 4.6,
      "coordinates": { "lat": 3.1146, "lng": 101.6706 }
    },
    {
      "id": "PROV-004",
      "name": "Sample Medical Centre D",
      "type": "Hospital",
      "address": "101, Healthcare Boulevard",
      "city": "Metro City",
      "state": "Central Region",
      "phone": "+60X-XXXX XXXX",
      "email": "contact@example-hospital-d.demo",
      "specialties": ["Oncology", "Cardiology", "Neurosurgery", "Rehabilitation"],
      "rating": 4.9,
      "coordinates": { "lat": 3.1530, "lng": 101.7176 }
    },
    {
      "id": "PROV-005",
      "name": "Sample Specialist Hospital E",
      "type": "Hospital",
      "address": "202, Medical Center Drive",
      "city": "Suburb City",
      "state": "Western Region",
      "phone": "+60X-XXXX XXXX",
      "email": "contact@example-hospital-e.demo",
      "specialties": ["Orthopedics", "Spine Surgery", "Sports Medicine", "Radiology"],
      "rating": 4.5,
      "coordinates": { "lat": 3.1313, "lng": 101.6237 }
    },
    {
      "id": "PROV-006",
      "name": "Sample Hospital F",
      "type": "Hospital",
      "address": "303, Care Street",
      "city": "East Town",
      "state": "Eastern Region",
      "phone": "+60X-XXXX XXXX",
      "email": "contact@example-hospital-f.demo",
      "specialties": ["Emergency Care", "General Medicine", "Pediatrics", "Obstetrics"],
      "rating": 4.4,
      "coordinates": { "lat": 3.0908, "lng": 101.7483 }
    },
    {
      "id": "PROV-007",
      "name": "Sample Clinic A",
      "type": "Clinic",
      "address": "Demo Street, Area A",
      "city": "Metro City",
      "state": "Central Region",
      "phone": "+60X-XXXX XXXX",
      "email": "contact@example-clinic-a.demo",
      "specialties": ["General Practice", "Preventive Care", "Vaccinations"],
      "rating": 4.2,
      "coordinates": { "lat": 3.1295, "lng": 101.6718 }
    },
    {
      "id": "PROV-008",
      "name": "Sample Clinic B",
      "type": "Clinic",
      "address": "Healthcare Lane, Area B",
      "city": "Metro City",
      "state": "Central Region",
      "phone": "+60X-XXXX XXXX",
      "email": "contact@example-clinic-b.demo",
      "specialties": ["General Practice", "Minor Procedures", "Health Screening"],
      "rating": 4.0,
      "coordinates": { "lat": 3.1893, "lng": 101.7147 }
    },
    {
      "id": "PROV-009",
      "name": "Sample 24-Hour Clinic C",
      "type": "Clinic",
      "address": "Emergency Avenue, Area C",
      "city": "Metro City",
      "state": "Central Region",
      "phone": "+60X-XXXX XXXX",
      "email": "contact@example-clinic-c.demo",
      "specialties": ["Emergency Care", "General Practice", "After-hours Care"],
      "rating": 4.3,
      "coordinates": { "lat": 3.1588, "lng": 101.7537 }
    },
    {
      "id": "PROV-010",
      "name": "Sample Family Clinic D",
      "type": "Clinic",
      "address": "Family Care Road, Area D",
      "city": "East Town",
      "state": "Eastern Region",
      "phone": "+60X-XXXX XXXX",
      "email": "contact@example-clinic-d.demo",
      "specialties": ["Family Medicine", "Pediatrics", "Geriatrics"],
      "rating": 4.1,
      "coordinates": { "lat": 3.0981, "lng": 101.7305 }
    },
    {
      "id": "PROV-011",
      "name": "Sample Eye Specialist Centre",
      "type": "Specialist",
      "address": "Vision Tower, Medical District",
      "city": "Metro City",
      "state": "Central Region",
      "phone": "+60X-XXXX XXXX",
      "email": "contact@example-eye-specialist.demo",
      "specialties": ["Ophthalmology", "LASIK", "Cataract Surgery", "Glaucoma"],
      "rating": 4.7,
      "coordinates": { "lat": 3.1512, "lng": 101.7089 }
    },
    {
      "id": "PROV-012",
      "name": "Sample Fertility Centre",
      "type": "Specialist",
      "address": "Women's Health Building, Healthcare Hub",
      "city": "Suburb City",
      "state": "Western Region",
      "phone": "+60X-XXXX XXXX",
      "email": "contact@example-fertility.demo",
      "specialties": ["Fertility Treatment", "IVF", "Reproductive Medicine"],
      "rating": 4.8,
      "coordinates": { "lat": 3.1579, "lng": 101.5867 }
    },
    {
      "id": "PROV-013",
      "name": "Sample Dermatology Centre",
      "type": "Specialist",
      "address": "Skin Health Tower, Medical District",
      "city": "Metro City",
      "state": "Central Region",
      "phone": "+60X-XXXX XXXX",
      "email": "contact@example-dermatology.demo",
      "specialties": ["Dermatology", "Cosmetic Dermatology", "Skin Cancer"],
      "rating": 4.5,
      "coordinates": { "lat": 3.1498, "lng": 101.7107 }
    },
    {
      "id": "PROV-014",
      "name": "Sample Orthopedic Specialists",
      "type": "Specialist",
      "address": "Bone & Joint Building, Healthcare Hub",
      "city": "Metro City",
      "state": "Central Region",
      "phone": "+60X-XXXX XXXX",
      "email": "contact@example-orthopedic.demo",
      "specialties": ["Orthopedics", "Sports Medicine", "Joint Replacement"],
      "rating": 4.6,
      "coordinates": { "lat": 3.1523, "lng": 101.7047 }
    },
    {
      "id": "PROV-015",
      "name": "Sample Regional Hospital G",
      "type": "Hospital",
      "address": "Regional Healthcare Complex",
      "city": "Northern City",
      "state": "Northern Region",
      "phone": "+60X-XXXX XXXX",
      "email": "contact@example-hospital-g.demo",
      "specialties": ["Cardiology", "Oncology", "Neurology", "Orthopedics"],
      "rating": 4.7,
      "coordinates": { "lat": 5.4164, "lng": 100.3183 }
    },
    {
      "id": "PROV-016",
      "name": "Sample Specialist Hospital H",
      "type": "Hospital",
      "address": "Eastern Medical Park",
      "city": "East Town",
      "state": "Eastern Region",
      "phone": "+60X-XXXX XXXX",
      "email": "contact@example-hospital-h.demo",
      "specialties": ["General Surgery", "Gastroenterology", "Urology", "Pediatrics"],
      "rating": 4.5,
      "coordinates": { "lat": 3.1456, "lng": 101.7614 }
    }
  ]
}
